[{"application":"xWVIueSv6JL0aJ5xqTxb","categories":[{"categoryId":"street-square","name":"Street or Square"}],"collectionId":["00b88c7e-f41a-4ad6-a388-5062bb9db010"],"createdTime":1585254862988,"creatorId":"HERE-9d318991-4e05-4650-947d-7e4f7c4a473f","deleteAccess":"creator","deleted":false,"id":"d33137c8-32b7-4161-bdd7-69df50ebb18f","instanceVersion":"1.20","location":{"address":{"city":"Skalbmierz","country":"POL","county":"Powiat Kazimierski","postalCode":"28-530","text":"Skalbmierz, Woj. Świętokrzyskie, Poland"},"position":{"latitude":50.3333,"longitude":20.3195}},"name":"Skalbmierz","readAccess":"creator","sor":"scbe","type":"favoritePlace","updatedTime":1585254863155,"writeAccess":"creator"},{"application":"xWVIueSv6JL0aJ5xqTxb","categories":[{"categoryId":"street-square","name":"Street or Square"}],"collectionId":["00b88c7e-f41a-4ad6-a388-5062bb9db010"],"createdTime":1585254788844,"creatorId":"HERE-9d318991-4e05-4650-947d-7e4f7c4a473f","deleteAccess":"creator","deleted":false,"id":"b703cb3a-4c58-49fc-b88a-c77680731487","instanceVersion":"1.20","location":{"address":{"city":"Skalbmierz","country":"POL","county":"Powiat Kazimierski","postalCode":"28-530","street":"plac Marii Skłodowskiej-Curie","text":"plac Marii Skłodowskiej-Curie 7, 28-530 Skalbmierz, Poland"},"position":{"latitude":50.3201,"longitude":20.39966}},"name":"plac Marii Skłodowskiej-Curie 7","readAccess":"creator","sor":"scbe","type":"favoritePlace","updatedTime":1585254789001,"writeAccess":"creator"},{"application":"xWVIueSv6JL0aJ5xqTxb","categories":[{"categoryId":"street-square","name":"Street or Square"}],"collectionId":["00b88c7e-f41a-4ad6-a388-5062bb9db010"],"createdTime":1585254780183,"creatorId":"HERE-9d318991-4e05-4650-947d-7e4f7c4a473f","deleteAccess":"creator","deleted":false,"id":"97eb3098-a81a-4b19-ba2f-b9ede327ff8a","instanceVersion":"1.20","location":{"address":{"city":"Skalbmierz","country":"POL","county":"Powiat Kazimierski","postalCode":"28-530","text":"Skalbmierz, Woj. Świętokrzyskie, Poland"},"position":{"latitude":50.32673,"longitude":20.39528}},"name":"Skalbmierz","readAccess":"creator","sor":"scbe","type":"favoritePlace","updatedTime":1585254780313,"writeAccess":"creator"},{"application":"xWVIueSv6JL0aJ5xqTxb","categories":[{"categoryId":"street-square","name":"Street or Square"}],"collectionId":["00b88c7e-f41a-4ad6-a388-5062bb9db010"],"createdTime":1585254774230,"creatorId":"HERE-9d318991-4e05-4650-947d-7e4f7c4a473f","deleteAccess":"creator","deleted":false,"id":"795da2b8-b1e7-40c5-aaad-e74b68c83874","instanceVersion":"1.20","location":{"address":{"city":"Skalbmierz","country":"POL","county":"Powiat Kazimierski","postalCode":"28-530","text":"Skalbmierz, Woj. Świętokrzyskie, Poland"},"position":{"latitude":50.31781,"longitude":20.3838}},"name":"Skalbmierz","readAccess":"creator","sor":"scbe","type":"favoritePlace","updatedTime":1585254774364,"writeAccess":"creator"},{"application":"xWVIueSv6JL0aJ5xqTxb","categories":[{"categoryId":"street-square","name":"Street or Square"}],"collectionId":["00b88c7e-f41a-4ad6-a388-5062bb9db010"],"createdTime":1585254759100,"creatorId":"HERE-9d318991-4e05-4650-947d-7e4f7c4a473f","deleteAccess":"creator","deleted":false,"id":"18402bea-3f7a-4b78-88e5-9f94409063fb","instanceVersion":"1.20","location":{"address":{"city":"Skalbmierz","country":"POL","county":"Powiat Kazimierski","postalCode":"28-530","street":"ulica św. Jana Pawła II","text":"ulica św. Jana Pawła II, 28-530 Skalbmierz, Poland"},"position":{"latitude":50.31694,"longitude":20.39866}},"name":"ulica św. Jana Pawła II","readAccess":"creator","sor":"scbe","type":"favoritePlace","updatedTime":1585254759283,"writeAccess":"creator"},{"application":"xWVIueSv6JL0aJ5xqTxb","categories":[{"categoryId":"street-square","name":"Street or Square"}],"collectionId":["00b88c7e-f41a-4ad6-a388-5062bb9db010"],"createdTime":1585254751482,"creatorId":"HERE-9d318991-4e05-4650-947d-7e4f7c4a473f","deleteAccess":"creator","deleted":false,"id":"fe93574c-7b17-41a7-9906-ed1935176014","instanceVersion":"1.20","location":{"address":{"city":"Skalbmierz","country":"POL","county":"Powiat Kazimierski","postalCode":"28-530","street":"ulica ppor. Sokoła","text":"ulica ppor. Sokoła 22A, 28-530 Skalbmierz, Poland"},"position":{"latitude":50.32036,"longitude":20.39415}},"name":"ulica ppor. Sokoła 22A","readAccess":"creator","sor":"scbe","type":"favoritePlace","updatedTime":1585254751618,"writeAccess":"creator"}]